{
    "FRA": {"name": "Frankfurt am Main", "lat": 50.0333, "lng": 8.5706},
    "MUC": {"name": "München", "lat": 48.3538, "lng": 11.7861},
    "BER": {"name": "Berlin Brandenburg", "lat": 52.3667, "lng": 13.5033},
    "DUS": {"name": "Düsseldorf", "lat": 51.2895, "lng": 6.7668},
    "HAM": {"name": "Hamburg", "lat": 53.6304, "lng": 9.9882},
    "CGN": {"name": "Köln/Bonn", "lat": 50.8659, "lng": 7.1427},
    "STR": {"name": "Stuttgart", "lat": 48.6899, "lng": 9.2220},
    "TXL": {"name": "Berlin Tegel", "lat": 52.5597, "lng": 13.2877},
    "HAJ": {"name": "Hannover", "lat": 52.4611, "lng": 9.6850},
    "NUE": {"name": "Nürnberg", "lat": 49.4987, "lng": 11.0669},
    "LEJ": {"name": "Leipzig/Halle", "lat": 51.4324, "lng": 12.2416},
    "DTM": {"name": "Dortmund", "lat": 51.5183, "lng": 7.6122},
    "BRE": {"name": "Bremen", "lat": 53.0475, "lng": 8.7867},
    "DRS": {"name": "Dresden", "lat": 51.1328, "lng": 13.7672},
    "LHR": {"name": "London Heathrow", "lat": 51.4700, "lng": -0.4543},
    "LGW": {"name": "London Gatwick", "lat": 51.1537, "lng": -0.1821},
    "STN": {"name": "London Stansted", "lat": 51.8860, "lng": 0.2389},
    "CDG": {"name": "Paris Charles de Gaulle", "lat": 49.0097, "lng": 2.5479},
    "ORY": {"name": "Paris Orly", "lat": 48.7262, "lng": 2.3652},
    "AMS": {"name": "Amsterdam Schiphol", "lat": 52.3086, "lng": 4.7639},
    "BCN": {"name": "Barcelona", "lat": 41.2971, "lng": 2.0785},
    "MAD": {"name": "Madrid Barajas", "lat": 40.4936, "lng": -3.5668},
    "FCO": {"name": "Rom Fiumicino", "lat": 41.8003, "lng": 12.2389},
    "MXP": {"name": "Mailand Malpensa", "lat": 45.6306, "lng": 8.7281},
    "VIE": {"name": "Wien", "lat": 48.1103, "lng": 16.5697},
    "ZRH": {"name": "Zürich", "lat": 47.4647, "lng": 8.5492},
    "GVA": {"name": "Genf", "lat": 46.2381, "lng": 6.1090},
    "BRU": {"name": "Brüssel", "lat": 50.9014, "lng": 4.4844},
    "CPH": {"name": "Kopenhagen", "lat": 55.6181, "lng": 12.6560},
    "ARN": {"name": "Stockholm Arlanda", "lat": 59.6519, "lng": 17.9186},
    "OSL": {"name": "Oslo Gardermoen", "lat": 60.1976, "lng": 11.1004},
    "HEL": {"name": "Helsinki", "lat": 60.3172, "lng": 24.9633},
    "WAW": {"name": "Warschau", "lat": 52.1657, "lng": 20.9671},
    "PRG": {"name": "Prag", "lat": 50.1008, "lng": 14.2600},
    "BUD": {"name": "Budapest", "lat": 47.4369, "lng": 19.2556},
    "ATH": {"name": "Athen", "lat": 37.9364, "lng": 23.9445},
    "IST": {"name": "Istanbul", "lat": 41.2753, "lng": 28.7519},
    "LIS": {"name": "Lissabon", "lat": 38.7742, "lng": -9.1342},
    "DUB": {"name": "Dublin", "lat": 53.4264, "lng": -6.2499},
    "EDI": {"name": "Edinburgh", "lat": 55.9508, "lng": -3.3615},
    "PMI": {"name": "Palma de Mallorca", "lat": 39.5517, "lng": 2.7388},
    "AGP": {"name": "Málaga", "lat": 36.6749, "lng": -4.4991},
    "TFS": {"name": "Teneriffa Süd", "lat": 28.0445, "lng": -16.5725},
    "HRG": {"name": "Hurghada", "lat": 27.1783, "lng": 33.7994},
    "SSH": {"name": "Sharm el-Sheikh", "lat": 27.9773, "lng": 34.3950},
    "JFK": {"name": "New York JFK", "lat": 40.6413, "lng": -73.7781},
    "EWR": {"name": "Newark", "lat": 40.6895, "lng": -74.1745},
    "LAX": {"name": "Los Angeles", "lat": 33.9416, "lng": -118.4085},
    "ORD": {"name": "Chicago O'Hare", "lat": 41.9742, "lng": -87.9073},
    "SFO": {"name": "San Francisco", "lat": 37.6213, "lng": -122.3790},
    "MIA": {"name": "Miami", "lat": 25.7959, "lng": -80.2870},
    "BKK": {"name": "Bangkok", "lat": 13.6900, "lng": 100.7501},
    "SIN": {"name": "Singapur", "lat": 1.3644, "lng": 103.9915},
    "DXB": {"name": "Dubai", "lat": 25.2532, "lng": 55.3657},
    "DOH": {"name": "Doha", "lat": 25.2731, "lng": 51.6081},
    "NRT": {"name": "Tokio Narita", "lat": 35.7720, "lng": 140.3929},
    "HND": {"name": "Tokio Haneda", "lat": 35.5494, "lng": 139.7798},
    "ICN": {"name": "Seoul Incheon", "lat": 37.4602, "lng": 126.4407},
    "SYD": {"name": "Sydney", "lat": -33.9461, "lng": 151.1772},
    "AKL": {"name": "Auckland", "lat": -37.0082, "lng": 174.7850},
    "GRZ": {"name": "Graz", "lat": 46.9911, "lng": 15.4396},
    "SZG": {"name": "Salzburg", "lat": 47.7933, "lng": 13.0043},
    "INN": {"name": "Innsbruck", "lat": 47.2602, "lng": 11.3440},
    "LNZ": {"name": "Linz", "lat": 48.2332, "lng": 14.1875},
    "BSL": {"name": "Basel-Mulhouse", "lat": 47.5896, "lng": 7.5299}
}
